{"version": 0.6, "generator": "Overpass API 0.7.62.1 084b4234", "osm3s": {"timestamp_osm_base": "2024-11-20T00:53:28Z", "copyright": "The data included in this document is from www.openstreetmap.org. The data is made available under ODbL."}, "elements": [{"type": "node", "id": 259674901, "lat": 50.8560176, "lon": 4.3572736, "tags": {"contact:phone": "+32 2 205 15 11", "contact:website": "https://www.thonhotels.com", "name": "Thon Hotel Brussels City Centre", "operator": "Thon Hotels", "stars": "4", "tourism": "hotel"}}, {"type": "node", "id": 512689361, "lat": 50.8542402, "lon": 4.3683007, "tags": {"alt_name": "CHAB", "contact:email": "info@chab.be", "contact:phone": "+32 2 217 01 58", "contact:website": "https://www.chab.be", "dryer": "yes", "internet_access": "wlan", "name": "Centre Vincent van Gogh", "name:nl": "Vincent Van Gogh centrum", "tourism": "hostel", "washing_machine": "yes"}}, {"type": "node", "id": 712975952, "lat": 50.8489393, "lon": 4.3683261, "tags": {"artist_name": "Charles Samuel", "artwork_type": "sculpture", "historic": "memorial", "layer": "1", "memorial": "statue", "name": "La Braban\u00e7onne", "start_date": "1930-11-16", "tourism": "artwork", "wikidata": "Q16677912", "wikimedia_commons": "File:'La Braban\u00e7onne' (15607113426).jpg", "wikipedia": "fr:Statue de la Braban\u00e7onne"}}, {"type": "node", "id": 790062494, "lat": 50.8561287, "lon": 4.3629229, "tags": {"brand": "Best Western", "brand:wikidata": "Q830334", "contact:email": "info@citycentre.be", "contact:fax": "+32 2 219 38 82", "contact:phone": "+32 2 219 06 61", "contact:website": "https://www.citycentre.be", "name": "Best Western City Center", "operator": "Best Western", "stars": "3", "tourism": "hotel"}}, {"type": "node", "id": 1615719184, "lat": 50.8553352, "lon": 4.3690718, "tags": {"contact:email": "info@hotelprestigebrussels.com", "contact:phone": "+32 2 211 40 30", "contact:website": "http://hotelprestigebrussels.com", "internet_access": "wlan", "internet_access:fee": "no", "name": "H\u00f4tel Prestige", "smoking": "no", "stars": "2", "tourism": "hotel"}}, {"type": "node", "id": 2141163890, "lat": 50.8552855, "lon": 4.3573277, "tags": {"contact:email": "dome@skypro.be", "contact:phone": "+32 2 218 06 80", "contact:website": "https://www.hotel-le-dome.be/", "name": "Le Dome", "stars": "4", "tourism": "hotel"}}, {"type": "node", "id": 2268286135, "lat": 50.850997, "lon": 4.364344, "tags": {"brand": "Best Western", "brand:wikidata": "Q830334", "brand:wikipedia": "en:Best Western", "contact:phone": "+32 2 219 00 65", "contact:website": "https://www.bestwestern-royal-bruxelles.be", "internet_access": "wlan", "internet_access:fee": "no", "name": "Best Western Royal Centre", "operator": "Best Western", "rooms": "73", "stars": "3", "tourism": "hotel"}}, {"type": "node", "id": 2345001466, "lat": 50.8493213, "lon": 4.3674804}, {"type": "node", "id": 2345001470, "lat": 50.8493384, "lon": 4.3673987}, {"type": "node", "id": 2345001477, "lat": 50.8493656, "lon": 4.3672759}, {"type": "node", "id": 2345001485, "lat": 50.8493923, "lon": 4.3671514}, {"type": "node", "id": 2345001514, "lat": 50.8494336, "lon": 4.3675463}, {"type": "node", "id": 2345001516, "lat": 50.8494357, "lon": 4.3675389}, {"type": "node", "id": 2345001521, "lat": 50.8494611, "lon": 4.3675593}, {"type": "node", "id": 2345001522, "lat": 50.8494702, "lon": 4.3675166}, {"type": "node", "id": 2345001529, "lat": 50.8494834, "lon": 4.3675234}, {"type": "node", "id": 2345001532, "lat": 50.8494928, "lon": 4.36748}, {"type": "node", "id": 2345001533, "lat": 50.849495, "lon": 4.3672019}, {"type": "node", "id": 2345001541, "lat": 50.8495082, "lon": 4.3674094}, {"type": "node", "id": 2345001549, "lat": 50.8495239, "lon": 4.3674175}, {"type": "node", "id": 2345001552, "lat": 50.8495334, "lon": 4.3673719}, {"type": "node", "id": 2345001571, "lat": 50.8495721, "lon": 4.3672408}, {"type": "node", "id": 2345001575, "lat": 50.8495923, "lon": 4.3672573}, {"type": "node", "id": 2345001578, "lat": 50.8496084, "lon": 4.3671849}, {"type": "node", "id": 2345001591, "lat": 50.8496288, "lon": 4.3674254}, {"type": "node", "id": 2345001601, "lat": 50.8496589, "lon": 4.3673375}, {"type": "node", "id": 2345001615, "lat": 50.849677, "lon": 4.3674521}, {"type": "node", "id": 2345001623, "lat": 50.8496842, "lon": 4.3672236}, {"type": "node", "id": 2345001641, "lat": 50.8497009, "lon": 4.3674227}, {"type": "node", "id": 2345002693, "lat": 50.8506771, "lon": 4.3675788}, {"type": "node", "id": 2345002699, "lat": 50.8506886, "lon": 4.3673893}, {"type": "node", "id": 2345002701, "lat": 50.8506952, "lon": 4.3673136}, {"type": "node", "id": 2345002703, "lat": 50.8507029, "lon": 4.3673849}, {"type": "node", "id": 2345002704, "lat": 50.8507064, "lon": 4.3674132}, {"type": "node", "id": 2345002736, "lat": 50.8507605, "lon": 4.3673895}, {"type": "node", "id": 2345002742, "lat": 50.8507775, "lon": 4.3675527}, {"type": "node", "id": 2345339238, "lat": 50.8551593, "lon": 4.3569516}, {"type": "node", "id": 2345339241, "lat": 50.855184, "lon": 4.3568581}, {"type": "node", "id": 2345339242, "lat": 50.8552107, "lon": 4.3567577}, {"type": "node", "id": 2345339243, "lat": 50.8552314, "lon": 4.3566787}, {"type": "node", "id": 2476434036, "lat": 50.8553486, "lon": 4.3672791}, {"type": "node", "id": 2476434038, "lat": 50.8553581, "lon": 4.3672328}, {"type": "node", "id": 2476434041, "lat": 50.8553822, "lon": 4.3672935}, {"type": "node", "id": 2476434044, "lat": 50.8554019, "lon": 4.3672007}, {"type": "node", "id": 2476434048, "lat": 50.8554079, "lon": 4.3669925}, {"type": "node", "id": 2476434050, "lat": 50.8554266, "lon": 4.3672137}, {"type": "node", "id": 2476434053, "lat": 50.8554666, "lon": 4.3670234}, {"type": "node", "id": 2482642684, "lat": 50.8566252, "lon": 4.3586575, "tags": {"contact:email": "info@progresshotel.be", "contact:fax": "+32 2 203 30 10", "contact:phone": "+32 2 205 17 00", "contact:website": "http://www.progresshotel.be", "internet_access": "wlan", "internet_access:fee": "no", "name": "Progress", "rooms": "57", "stars": "4", "tourism": "hotel"}}, {"type": "node", "id": 2482644860, "lat": 50.8549348, "lon": 4.3603146}, {"type": "node", "id": 2482644861, "lat": 50.8549349, "lon": 4.3603197}, {"type": "node", "id": 2482644862, "lat": 50.8549369, "lon": 4.360324}, {"type": "node", "id": 2482644863, "lat": 50.8549743, "lon": 4.3601808}, {"type": "node", "id": 2482644864, "lat": 50.8550568, "lon": 4.3602412}, {"type": "node", "id": 2482644865, "lat": 50.8550676, "lon": 4.3602018}, {"type": "node", "id": 2482644867, "lat": 50.8551053, "lon": 4.360251}, {"type": "node", "id": 2482644868, "lat": 50.8551099, "lon": 4.3602315}, {"type": "node", "id": 2482644870, "lat": 50.8551564, "lon": 4.3602865}, {"type": "node", "id": 2482644871, "lat": 50.8552242, "lon": 4.3598672}, {"type": "node", "id": 2482644872, "lat": 50.8552541, "lon": 4.3602809}, {"type": "node", "id": 2482644873, "lat": 50.855266, "lon": 4.359898}, {"type": "node", "id": 2482644875, "lat": 50.8552737, "lon": 4.3602034}, {"type": "node", "id": 2482644876, "lat": 50.8553527, "lon": 4.3603504}, {"type": "node", "id": 2482644877, "lat": 50.8553539, "lon": 4.3594072}, {"type": "node", "id": 2482644878, "lat": 50.855376, "lon": 4.3602677}, {"type": "node", "id": 2482644879, "lat": 50.8554213, "lon": 4.360649}, {"type": "node", "id": 2482644880, "lat": 50.855451, "lon": 4.3604426}, {"type": "node", "id": 2482644881, "lat": 50.8554758, "lon": 4.3604601}, {"type": "node", "id": 2482644893, "lat": 50.8555666, "lon": 4.3599453}, {"type": "node", "id": 2482644894, "lat": 50.8555742, "lon": 4.3597534}, {"type": "node", "id": 2482644897, "lat": 50.8555769, "lon": 4.3597859}, {"type": "node", "id": 2482644898, "lat": 50.8555841, "lon": 4.3598873}, {"type": "node", "id": 2482644899, "lat": 50.855588, "lon": 4.3599605}, {"type": "node", "id": 2482644901, "lat": 50.8555909, "lon": 4.3595774}, {"type": "node", "id": 2482669691, "lat": 50.8548443, "lon": 4.3663734}, {"type": "node", "id": 2482669693, "lat": 50.8549344, "lon": 4.3660039}, {"type": "node", "id": 2482669702, "lat": 50.8555573, "lon": 4.3667392}, {"type": "node", "id": 2482669703, "lat": 50.8556218, "lon": 4.3665084}, {"type": "node", "id": 2620469506, "lat": 50.855001, "lon": 4.3571681, "tags": {"addr:housenumber": "146", "addr:street": "Boulevard Adolphe Max - Adolphe Maxlaan", "entrance": "main", "ref:UrbIS": "8206049"}}, {"type": "node", "id": 2620470174, "lat": 50.8549039, "lon": 4.357048}, {"type": "node", "id": 2620470204, "lat": 50.8550149, "lon": 4.3568215}, {"type": "node", "id": 2620470212, "lat": 50.8550472, "lon": 4.356739}, {"type": "node", "id": 2620470218, "lat": 50.8550755, "lon": 4.3572603}, {"type": "node", "id": 2620470221, "lat": 50.8550868, "lon": 4.3566018}, {"type": "node", "id": 2620470225, "lat": 50.8551014, "lon": 4.3565878}, {"type": "node", "id": 2620470226, "lat": 50.8551088, "lon": 4.3565187}, {"type": "node", "id": 2620470229, "lat": 50.855119, "lon": 4.357089}, {"type": "node", "id": 2620470231, "lat": 50.8551257, "lon": 4.3565644}, {"type": "node", "id": 2620470240, "lat": 50.8551468, "lon": 4.3569992}, {"type": "node", "id": 2620470241, "lat": 50.8551553, "lon": 4.3573571}, {"type": "node", "id": 2620470242, "lat": 50.8551577, "lon": 4.3564745}, {"type": "node", "id": 2620470248, "lat": 50.855191, "lon": 4.3572285}, {"type": "node", "id": 2620470252, "lat": 50.8552093, "lon": 4.3566247}, {"type": "node", "id": 2620470254, "lat": 50.855213, "lon": 4.357157}, {"type": "node", "id": 2777822689, "lat": 50.8566698, "lon": 4.3554989, "tags": {"amenity": "fountain", "artist_name": "Pol Bury", "drinking_water": "no", "fountain": "decorative", "lit": "yes", "mapillary": "512610653075359", "name": "Juin 1995 - Juni 1995", "name:en": "June 1995", "name:fr": "Juin 1995", "name:nl": "Juni 1995", "tourism": "artwork", "wikidata": "Q33242576", "wikimedia_commons": "Category:June 1995 (Pol Bury)"}}, {"type": "node", "id": 2910866128, "lat": 50.858975, "lon": 4.3597631, "tags": {"artist_name": "Paul Jouret", "artwork_type": "sculpture", "mapillary": "503098440722964", "name": "Au Solstice - Aan de Zonnewende", "name:fr": "Au Solstice", "name:nl": "Aan de Zonnewende", "start_date": "2001", "tourism": "artwork", "website": "https://www.standbeelden.be/standbeeld/1248", "wikimedia_commons": "File:Saint-Josse-ten-Noode - Place du Nord - 001.jpg"}}, {"type": "node", "id": 3218833195, "lat": 50.8548232, "lon": 4.366903, "tags": {"contact:phone": "+32 2 210 19 90", "contact:website": "https://retrohotelbxl.com/", "name": "Hotel Retro", "stars": "2", "tourism": "hotel"}}, {"type": "node", "id": 3766121574, "lat": 50.8563737, "lon": 4.358358, "tags": {"contact:phone": "+32 2 203 33 03", "contact:website": "https://www.hotelsiru.com/", "name": "Hotel Siru", "stars": "3", "tourism": "hotel", "wikidata": "Q36693873", "wikimedia_commons": "Category:H\u00f4tel Siru", "wikipedia": "fr:H\u00f4tel Siru"}}, {"type": "node", "id": 3818736242, "lat": 50.8581535, "lon": 4.3594217, "tags": {"artist_name": "Jean-Michel Folon", "artwork_type": "sculpture", "mapillary": "2254461104688095", "name": "La Ville en Marche", "start_date": "2001", "tourism": "artwork"}}, {"type": "node", "id": 3863699465, "lat": 50.851928, "lon": 4.3654825, "tags": {"contact:phone": "+32 2 538 70 38", "description": "Aparthotel", "internet_access": "wlan", "internet_access:fee": "no", "name": "Sasha Royale", "rooms": "5", "tourism": "apartment"}}, {"type": "node", "id": 3871385541, "lat": 50.8493179, "lon": 4.3676207, "tags": {"contact:phone": "+32 2 218 83 75", "name": "La Tasse d'Argent", "tourism": "hotel"}}, {"type": "node", "id": 4107579591, "lat": 50.8511186, "lon": 4.3643837, "tags": {"contact:website": "http://royalapartmentbrussels.com", "description": "Aparthotel", "internet_access": "wlan", "level": "1", "name": "Royal Apartment", "tourism": "apartment"}}, {"type": "node", "id": 4508062603, "lat": 50.8530449, "lon": 4.3644257, "tags": {"artist_name": "Nat Neujean", "artwork_type": "statue", "height": "4", "material": "bronze", "name": "L'\u00c2me Sentinelle", "start_date": "1984", "tourism": "artwork"}}, {"type": "node", "id": 4705873501, "lat": 50.8512965, "lon": 4.3674456}, {"type": "node", "id": 4705873502, "lat": 50.8513213, "lon": 4.3674406}, {"type": "node", "id": 4705873503, "lat": 50.8513403, "lon": 4.3674633}, {"type": "node", "id": 4705873504, "lat": 50.8513438, "lon": 4.3675029}, {"type": "node", "id": 4705873505, "lat": 50.8513288, "lon": 4.367534}, {"type": "node", "id": 4705873506, "lat": 50.851304, "lon": 4.367539}, {"type": "node", "id": 4705873507, "lat": 50.8512851, "lon": 4.3675163}, {"type": "node", "id": 4705873508, "lat": 50.8512815, "lon": 4.3674767}, {"type": "node", "id": 4844399668, "lat": 50.8562151, "lon": 4.3626828, "tags": {"contact:phone": "+32 2 218 70 53", "contact:website": "https://www.hotelalbergo.be/", "name": "Albergo", "stars": "2", "tourism": "hotel"}}, {"type": "node", "id": 5001908080, "lat": 50.8565401, "lon": 4.3586033, "tags": {"contact:phone": "+32 2 203 47 76", "name": "Hotel City Center", "old_name": "Galaxy", "tourism": "hotel"}}, {"type": "node", "id": 5301250535, "lat": 50.8581623, "lon": 4.3618781, "tags": {"contact:website": "https://www.hoteleuropacity.com/HOTELBRUXELLES/", "name": "Europacity", "tourism": "hotel"}}, {"type": "node", "id": 5316951259, "lat": 50.8552438, "lon": 4.3634174, "tags": {"tourism": "artwork"}}, {"type": "node", "id": 5538767586, "lat": 50.8562694, "lon": 4.355783, "tags": {"artist_name": "Fletcher Benton", "artist_name:wikidata": "Q517833", "artwork_type": "sculpture", "name": "Double Folded Circle Ring", "start_date": "1992", "tourism": "artwork"}}, {"type": "node", "id": 5612281721, "lat": 50.8586278, "lon": 4.3565115, "tags": {"artist:wikidata": "Q22237291", "artist_name": "Rombouts & Droste", "artwork_type": "sculpture", "material": "bronze", "name": "L\u00e9gende - Legende", "name:fr": "L\u00e9gende", "name:nl": "Legende", "start_date": "1997", "tourism": "artwork"}}, {"type": "node", "id": 5930123240, "lat": 50.8539913, "lon": 4.369082, "tags": {"contact:phone": "+32 2 256 64 23", "contact:website": "http://hotelmeribel.eurorentals.info", "internet_access": "wlan", "name": "Hotel M\u00e9ribel", "rooms": "4", "stars": "3", "tourism": "hotel"}}, {"type": "node", "id": 5959744001, "lat": 50.8545084, "lon": 4.3679442, "tags": {"alt_name": "European Trainee Residence", "contact:website": "http://www.etr-brussels.be", "description": "Studios et appartements pour jeunes \u00e9trangers en formation acad\u00e9mique ou professionnelle", "name": "Foyer Europ\u00e9en", "rooms": "47", "tourism": "apartment"}}, {"type": "node", "id": 6244311753, "lat": 50.8502442, "lon": 4.3732644, "tags": {"fax": "+32 2 219 04 06", "name": "Institute of Cultural Affairs in Belgium", "opening_hours": "Mo-Fr 08:00-20:00", "phone": "+32 2 219 00 87", "short_name": "icab", "tourism": "hotel", "website": "https://icab.be"}}, {"type": "node", "id": 6247954071, "lat": 50.848729, "lon": 4.3687426, "tags": {"check_date": "2024-03-19", "name": "Apart Hotels Just Be Regent", "tourism": "hotel"}}, {"type": "node", "id": 6942666188, "lat": 50.8493003, "lon": 4.369514, "tags": {"access": "yes", "description": "Large letters on metal pillars. The letters say \"I\u2665SJTN\", SJTN being the acronym of the municipality here, which is Sint-Joost-ten-Node / Saint-Josse-ten-Noode", "fee": "no", "name": "I\u2665SJTN", "tourism": "attraction"}}, {"type": "node", "id": 8185262771, "lat": 50.8498087, "lon": 4.3752362, "tags": {"artwork_type": "mural", "mapillary": "2994246304191708", "tourism": "artwork"}}, {"type": "node", "id": 8191852126, "lat": 50.8530326, "lon": 4.3693486, "tags": {"artwork_type": "mural", "mapillary": "162785265783494", "tourism": "artwork"}}, {"type": "node", "id": 8806774271, "lat": 50.8539079, "lon": 4.362117, "tags": {"artist:wikidata": "Q2742216", "artist_name": "Jacques Moeschal", "artwork_type": "sculpture", "name": "Les neuf Provinces - De negen provincies", "name:fr": "Les neuf Provinces", "name:nl": "De negen provincies", "tourism": "artwork"}}, {"type": "node", "id": 8849208354, "lat": 50.8530673, "lon": 4.3779885, "tags": {"artist_name": "Julien Dillens", "artwork_type": "statue", "name": "La Source", "source_ref": "http://www.sculpturepublique.be/1210/Dillens-Source.htm", "tourism": "artwork", "year": "1901"}}, {"type": "node", "id": 8850540213, "lat": 50.8536363, "lon": 4.3776749, "tags": {"artist_name": "Guillaume Charlier", "artwork_type": "statue", "material": "stone", "name": "Les Carriers", "source_ref": "http://www.sculpturepublique.be/1210/Charlier-Carriers.htm", "tourism": "artwork", "year": "1909"}}, {"type": "node", "id": 9174294227, "lat": 50.8567837, "lon": 4.3661012, "tags": {"artist_name": "Arnaud Th\u00e9val", "artwork_type": "installation", "name": "Vestibule (L'invention d'un lieu collectif) - Vestibule (Het bedenken van een gemeenschappelijke plek)", "name:fr": "Vestibule (L'invention d'un lieu collectif)", "name:nl": "Vestibule (Het bedenken van een gemeenschappelijke plek)", "ref:urbanbrussels": "64607", "start_date": "2009", "tourism": "artwork"}}, {"type": "node", "id": 9193553281, "lat": 50.8518091, "lon": 4.3653122, "tags": {"brand": "Upkot", "contact:website": "https://upkot.be/projects/king-upkot", "description": "Rooms for students (typically rent for several months)", "guest_house": "apartment", "internet_access": "yes", "internet_access:fee": "customers", "name": "King Upkot", "rooms": "131", "tourism": "hostel"}}, {"type": "node", "id": 9460060834, "lat": 50.8580649, "lon": 4.3562061}, {"type": "node", "id": 9460060835, "lat": 50.8580603, "lon": 4.3562332}, {"type": "node", "id": 9460060836, "lat": 50.8580502, "lon": 4.3562563}, {"type": "node", "id": 9460060837, "lat": 50.8580358, "lon": 4.3562726}, {"type": "node", "id": 9460060838, "lat": 50.8580188, "lon": 4.3562803}, {"type": "node", "id": 9460060839, "lat": 50.8579618, "lon": 4.356195}, {"type": "node", "id": 9460060840, "lat": 50.8579652, "lon": 4.3561696}, {"type": "node", "id": 9460060841, "lat": 50.8579734, "lon": 4.3561472}, {"type": "node", "id": 9460060842, "lat": 50.8579856, "lon": 4.3561299}, {"type": "node", "id": 9460060843, "lat": 50.8580006, "lon": 4.3561196}, {"type": "node", "id": 9460060844, "lat": 50.8580011, "lon": 4.3562784}, {"type": "node", "id": 9460060845, "lat": 50.8579849, "lon": 4.3562671}, {"type": "node", "id": 9460060846, "lat": 50.857972, "lon": 4.3562479}, {"type": "node", "id": 9460060847, "lat": 50.857964, "lon": 4.3562229}, {"type": "node", "id": 9460060848, "lat": 50.8580169, "lon": 4.3561172}, {"type": "node", "id": 9460060849, "lat": 50.8580329, "lon": 4.3561231}, {"type": "node", "id": 9460060850, "lat": 50.8580469, "lon": 4.3561365}, {"type": "node", "id": 9460060851, "lat": 50.8580575, "lon": 4.3561562}, {"type": "node", "id": 9460060852, "lat": 50.8580637, "lon": 4.3561802}, {"type": "node", "id": 9635436644, "lat": 50.8571793, "lon": 4.3621716, "tags": {"artist:wikidata": "Q28122911", "artist_name": "Okuda", "artwork_type": "mural", "name": "Multiculturaly Balance the World", "panoramax": "91cc200f-3d68-4918-8bd3-7eebfec06993", "tourism": "artwork"}}, {"type": "node", "id": 9914917325, "lat": 50.8552085, "lon": 4.3665602, "tags": {"automatic_door": "motion", "door": "revolving", "entrance": "main", "kerb:height": "0", "panoramax": "1c9507e7-8cdd-4a2d-a9fd-45726f222ed2"}}, {"type": "node", "id": 10200424479, "lat": 50.8551973, "lon": 4.3719695, "tags": {"artist_name": "Ever Meulen", "artwork_type": "mural", "name": "Saint-Josse-sur-Mer", "panoramax": "2db13e36-cab3-46f2-a29c-ac04d7ef1bd9", "start_date": "2000", "tourism": "artwork"}}, {"type": "node", "id": 10200424485, "lat": 50.8551445, "lon": 4.3718275, "tags": {"artwork_type": "sculpture", "material": "metal", "name": "Piano", "tourism": "artwork"}}, {"type": "node", "id": 10200424505, "lat": 50.8552143, "lon": 4.3719171, "tags": {"artwork_type": "sculpture", "material": "metal", "name": "Guitare - Gitaar", "tourism": "artwork"}}, {"type": "node", "id": 10200424507, "lat": 50.8551574, "lon": 4.3717403, "tags": {"artwork_type": "sculpture", "material": "metal", "name": "Harpe - Harp", "tourism": "artwork"}}, {"type": "node", "id": 10208390445, "lat": 50.8528179, "lon": 4.3687721, "tags": {"board_type": "memorial", "information": "board", "inscription": "Ici, un des 19 ormes plant\u00e9s le 11 novembre 2018 symbole de l'opini\u00e2tret\u00e9 de la vie \u00e0 travers les \u00e9preuves - Dit is \u00e9\u00e9n van de 19 olmen die op 11 november 2018 werden geplant symbool van de volharding waarmee het leven beproevingen doorstaat", "operator": "R\u00e9gion de Bruxelles-Capitale - Brussels Hoofdstedelijk Gewest", "tourism": "information"}}, {"type": "node", "id": 10255295922, "lat": 50.8506992, "lon": 4.369062, "tags": {"board_type": "history;architecture", "colour": "green", "information": "board", "language:de": "yes", "language:en": "yes", "language:fr": "yes", "language:nl": "yes", "name": "Hot\u00eal communal - Gemeentehuis - Town Hall - Rathaus", "name:de": "Rathaus", "name:en": "Town Hall", "name:fr": "Hot\u00eal communal", "name:nl": "Gemeentehuis", "subject:wikidata": "Q18285848", "tourism": "information"}}, {"type": "node", "id": 10284463181, "lat": 50.8551013, "lon": 4.3608371, "tags": {"artwork_type": "statue", "tourism": "artwork"}}, {"type": "node", "id": 10312951729, "lat": 50.8505849, "lon": 4.3805409, "tags": {"artwork_type": "mural", "historic": "memorial", "memorial": "mural", "name": "Toots Thielemans", "subject:wikidata": "Q365567", "subject:wikipedia": "en:Toots Thielemans", "tourism": "artwork"}}, {"type": "node", "id": 10608380882, "lat": 50.8514771, "lon": 4.3690027, "tags": {"artist:wikidata": "Q3010500", "artist_name": "C\u00e9sar Scrouvens", "artwork_type": "bust", "inscription": "A HENRI FRICK BOURGMESTRE DE ST.-JOSSE-TEN-NOODE DE 1900 A 1926", "material": "stone", "name": "Henri Frick", "subject:wikidata": "Q3131125", "subject:wikipedia": "fr:Henri Frick", "tourism": "artwork"}}, {"type": "node", "id": 10608381248, "lat": 50.8525007, "lon": 4.3689096, "tags": {"board_type": "history", "colour": "green", "information": "board", "language:de": "yes", "language:en": "yes", "language:fr": "yes", "language:nl": "yes", "name": "Ancien observatoire - Voormalig Observatorium - Former Observatory - Ehemalige Sternwarte", "name:de": "Ehemalige Sternwarte", "name:en": "Former Observatory", "name:fr": "Ancien observatoire", "name:nl": "Voormalig Observatorium", "subject:wikidata": "Q2845808", "subject:wikipedia": "fr:Ancien observatoire royal de Bruxelles", "support": "wall", "tourism": "information"}}, {"type": "node", "id": 10860010102, "lat": 50.8532118, "lon": 4.3686701, "tags": {"artist_name": "No More Lies", "artwork_type": "mural", "description": "Street art by artist group Balkan Trafik showing many different type of flowers as a symbol of Brussels diversity, one of the flowers being a yellow iris", "name": "Flora Balcanica", "panoramax": "fbf67660-f000-42bc-83b4-a805606250fa", "start_date": "2023-04", "tourism": "artwork"}}, {"type": "node", "id": 10898610776, "lat": 50.8557187, "lon": 4.3632631, "tags": {"addr:housenumber": "1", "addr:street": "Square Victoria R\u00e9gina - Victoria Reginaplantsoen", "bar": "yes", "brand": "The Hoxton", "brand:wikidata": "Q24039229", "contact:website": "https://thehoxton.com/brussels/", "description": "Occupying a brutalist-style tower building and the former European headquarters of IBM, The Hoxton, Brussels has a lofty double height lobby, bar and restaurant and a rooftop terrace with all the views.", "name": "The Hoxton", "rooms": "198", "start_date": "2023-05-22", "tourism": "hotel"}}, {"type": "node", "id": 10951249010, "lat": 50.8522013, "lon": 4.37454, "tags": {"board_type": "architecture", "colour": "green", "information": "board", "language:de": "yes", "language:en": "yes", "language:fr": "yes", "language:nl": "yes", "name": "Maison personnelle de l'architecte L\u00e9on Govaerts - Persoonlijke woning van architect L\u00e9on Govaerts - Personal home of the architect L\u00e9on Govaerts - Eigenheim des Architekten L\u00e9on Govaerts", "name:de": "Eigenheim des Architekten L\u00e9on Govaerts", "name:en": "Personal home of the architect L\u00e9on Govaerts", "name:fr": "Maison personnelle de l'architecte L\u00e9on Govaerts", "name:nl": "Persoonlijke woning van architect L\u00e9on Govaerts", "subject:wikidata": "Q3278764", "subject:wikipedia": "fr:Maison Govaerts", "support": "pole", "tourism": "information"}}, {"type": "node", "id": 11011764981, "lat": 50.8530228, "lon": 4.37379, "tags": {"artwork_type": "bust", "inscription": "1533-1599", "name": "J.B. Houwaert", "tourism": "artwork"}}, {"type": "node", "id": 11017517775, "lat": 50.8550896, "lon": 4.3566097}, {"type": "node", "id": 11017531088, "lat": 50.8549203, "lon": 4.3570683, "tags": {"entrance": "shop"}}, {"type": "node", "id": 11019832228, "lat": 50.8555719, "lon": 4.3595637, "tags": {"entrance": "yes"}}, {"type": "node", "id": 11019832229, "lat": 50.855325, "lon": 4.3605844, "tags": {"addr:housenumber": "3", "addr:street": "Rue Gineste - Ginestestraat", "entrance": "main", "ref:UrbIS": "8205755"}}, {"type": "node", "id": 11035384159, "lat": 50.8553894, "lon": 4.3594327, "tags": {"entrance": "exit", "exit": "emergency"}}, {"type": "node", "id": 11086726443, "lat": 50.8523462, "lon": 4.3614219, "tags": {"artist_name": "Bruce Clarke", "artwork_type": "mural", "name": "Les Hommes Debout", "tourism": "artwork", "website": "https://parcoursstreetart.brussels/oeuvres/bruce-clarke-rue-de-lommegang-1000-bruxelles/"}}, {"type": "node", "id": 11090076656, "lat": 50.8547069, "lon": 4.365465, "tags": {"description": "Jul Lagae 1898", "tourism": "artwork"}}, {"type": "node", "id": 11101909036, "lat": 50.8493247, "lon": 4.367464, "tags": {"addr:housenumber": "44", "addr:street": "Rue du Congr\u00e8s - Congresstraat", "entrance": "yes", "ref:UrbIS": "8206563"}}, {"type": "node", "id": 11101994348, "lat": 50.8493731, "lon": 4.3672407}, {"type": "node", "id": 11203386119, "lat": 50.8491887, "lon": 4.3671734, "tags": {"name": "Madou", "tourism": "hotel"}}, {"type": "node", "id": 11288755340, "lat": 50.8517259, "lon": 4.3671399, "tags": {"contact:phone": "+32 2 218 01 87", "contact:website": "https://www.laj.be", "name": "Auberge de Jeunesse Jacques Brel", "operator": "LAJ", "toilets:wheelchair": "yes", "tourism": "hostel", "wheelchair": "yes"}}, {"type": "node", "id": 11288928609, "lat": 50.8506996, "lon": 4.367573, "tags": {"addr:housenumber": "78", "addr:street": "Rue du Nord - Noordstraat", "entrance": "yes", "ref:UrbIS": "8206277"}}, {"type": "node", "id": 11288928610, "lat": 50.8506461, "lon": 4.3673005}, {"type": "node", "id": 11629167373, "lat": 50.8507074, "lon": 4.3692111, "tags": {"artwork_type": "sculpture", "tourism": "artwork"}}, {"type": "node", "id": 11629167374, "lat": 50.8507366, "lon": 4.3692789, "tags": {"artwork_type": "sculpture", "tourism": "artwork"}}, {"type": "node", "id": 11767958923, "lat": 50.85617, "lon": 4.3551507, "tags": {"artist_name": "Ju Ming", "artwork_type": "sculpture", "name": "Arch", "tourism": "artwork"}}, {"type": "node", "id": 11830444262, "lat": 50.8551154, "lon": 4.3573087, "tags": {"addr:housenumber": "160", "addr:street": "Boulevard Adolphe Max - Adolphe Maxlaan", "entrance": "no", "ref:UrbIS": "8206995"}}, {"type": "node", "id": 11964727285, "lat": 50.8567748, "lon": 4.3674215, "tags": {"board_type": "history", "colour": "green", "information": "board", "language:de": "yes", "language:en": "yes", "language:fr": "yes", "language:nl": "yes", "material": "metal", "name": "H\u00f4tel de Mensil - Voormaling Hotel de Mensil - De Mensil House - Herrenhaus de Mensil", "name:de": "Herrenhaus de Mensil", "name:en": "De Mensil House", "name:fr": "H\u00f4tel de Mensil", "name:nl": "Voormaling Hotel de Mensil", "tourism": "information"}}, {"type": "node", "id": 11964727286, "lat": 50.8574321, "lon": 4.3677561, "tags": {"board_type": "history", "colour": "green", "information": "board", "language:de": "yes", "language:en": "yes", "language:fr": "yes", "language:nl": "yes", "material": "metal", "name": "H\u00f4tel Cohn-Donnay - Cohn-Donnayhuis", "name:de": "Herrenhaus Cohn-Donnay", "name:en": "Cohn-Donnay House", "name:fr": "H\u00f4tel Cohn-Donnay", "name:nl": "Cohn-Donnayhuis", "subject:wikidata": "Q3145453", "subject:wikipedia": "fr:H\u00f4tel Cohn-Donnay", "tourism": "information"}}, {"type": "node", "id": 12172381129, "lat": 50.8564609, "lon": 4.3581965, "tags": {"contact:phone": "+32 2 205 16 00", "contact:website": "http://www.hotel-des-colonies.com", "name": "H\u00f4tel des Colonies", "stars": "3", "tourism": "hotel"}}, {"type": "node", "id": 12173033763, "lat": 50.8557296, "lon": 4.3599424, "tags": {"air_conditioning": "yes", "brand": "Hotel Indigo", "brand:wikidata": "Q5911596", "contact:email": "info@indigobrusselscity.com", "contact:phone": "+32 2 203 31 25", "contact:website": "https://www.ihg.com/hotelindigo/hotels/gb/en/brussels/brupr/hoteldetail", "internet_access": "wlan", "name": "Hotel Indigo Brussels \u2013 City", "operator": "IHG", "rooms": "284", "smoking": "no", "stars": "4", "tourism": "hotel", "wheelchair": "yes"}}, {"type": "node", "id": 12228986157, "lat": 50.8547274, "lon": 4.3620825, "tags": {"artwork_type": "statue", "tourism": "artwork"}}, {"type": "way", "id": 225746521, "nodes": [2345002701, 2345002699, 2345002703, 2345002704, 2345002736, 2345002742, 11288928609, 2345002693, 11288928610, 2345002701], "tags": {"building": "yes", "contact:phone": "+32 2 218 26 37", "contact:website": "http://www.hotelsabina.eu", "name": "Hotel Sabina", "ref:UrbIS": "8206277", "rooms": "24", "stars": "2", "tourism": "hotel"}}, {"type": "way", "id": 239862164, "nodes": [2476434048, 2476434053, 2476434050, 2476434044, 2476434041, 2476434036, 2476434038, 2476434048], "tags": {"addr:housenumber": "195", "addr:street": "Rue Royale - Koningsstraat", "building": "yes", "contact:phone": "+32 2 226 04 60", "contact:website": "https://www.villaroyale.be", "name": "Villa Royale", "ref:UrbIS": "8206809", "rooms": "50", "stars": "3", "tourism": "hotel"}}, {"type": "way", "id": 240537565, "nodes": [2482644901, 2482644894, 2482644897, 2482644898, 2482644893, 2482644899, 2482644880, 2482644881, 2482644879, 11019832229, 2482644862, 2482644861, 2482644860, 2482644863, 2482644864, 2482644865, 2482644868, 2482644867, 2482644870, 2482644873, 2482644871, 2482644877, 11035384159, 11019832228, 2482644901]}, {"type": "way", "id": 240537566, "nodes": [2482644872, 2482644876, 2482644878, 2482644875, 2482644872]}, {"type": "way", "id": 240540287, "nodes": [2482669693, 2482669703, 2482669702, 9914917325, 2482669691, 2482669693], "tags": {"addr:housenumber": "250", "addr:street": "Rue Royale - Koningsstraat", "building": "yes", "contact:phone": "+32 2 220 66 11", "contact:website": "https://www.nh-hotels.fr/hotel/nh-brussels-bloom", "name": "NH Brussels Bloom", "operator": "NH", "ref:UrbIS": "6085037", "source:geometry:ref": "Urbis/6085037", "source:geometry:version": "9", "stars": "4", "toilets:wheelchair": "yes", "tourism": "hotel", "wheelchair": "yes", "wheelchair:description": "Drei barrierefrei Zimmer mit begehbarer Dusche mit Klappsitz, Toilette mit Klappst\u00fctzgrif"}}, {"type": "way", "id": 477198306, "nodes": [4705873508, 4705873507, 4705873506, 4705873505, 4705873504, 4705873503, 4705873502, 4705873501, 4705873508], "tags": {"artist_name": "Joseph Geefs", "artwork_type": "statue", "building": "yes", "material": "bronze", "name": "Andr\u00e9 V\u00e9sale - Andreas Vesalius", "name:fr": "Andr\u00e9 V\u00e9sale", "name:nl": "Andreas Vesalius", "tourism": "artwork", "wikidata": "Q16677908", "wikimedia_commons": "Category:Statue d'Andr\u00e9 V\u00e9sale", "wikipedia": "fr:Statue d'Andr\u00e9 V\u00e9sale"}}, {"type": "way", "id": 1026057984, "nodes": [9460060848, 9460060849, 9460060850, 9460060851, 9460060852, 9460060834, 9460060835, 9460060836, 9460060837, 9460060838, 9460060844, 9460060845, 9460060846, 9460060847, 9460060839, 9460060840, 9460060841, 9460060842, 9460060843, 9460060848], "tags": {"artist:wikidata": "Q22237291", "artist_name": "Rombouts & Droste", "artwork_type": "sculpture", "material": "bronze", "name": "Rencontrer - Ontmoeten", "name:fr": "Rencontrer", "name:nl": "Ontmoeten", "start_date": "1997", "tourism": "artwork"}}, {"type": "way", "id": 1107960239, "nodes": [2345001552, 2345001549, 2345001541, 2345001532, 2345001529, 2345001522, 2345001521, 2345001514, 2345001516, 2345001466, 11101909036, 2345001470, 2345001477, 11101994348, 2345001485, 2345001533, 2345001571, 2345001575, 2345001578, 2345001623, 2345001601, 2345001641, 2345001615, 2345001591, 2345001552], "tags": {"contact:email": "info@hotelducongres.be", "contact:fax": "+32 2 217 18 97", "contact:phone": "+32 2 217 18 90", "contact:website": "https://www.hotelducongres.be/", "name": "H\u00f4tel du Congr\u00e8s", "rooms": "70", "stars": "3", "tourism": "hotel"}}, {"type": "way", "id": 1186171106, "nodes": [2620470241, 2620470248, 2620470254, 2620470229, 2620470240, 2345339238, 2345339241, 2345339242, 2345339243, 2620470252, 2620470242, 2620470226, 2620470231, 2620470225, 2620470221, 11017517775, 2620470212, 2620470204, 2620470174, 11017531088, 2620469506, 2620470218, 11830444262, 2620470241], "tags": {"alt_name": "La Maison du Dragon", "contact:phone": "+32 2 250 10 20", "contact:website": "http://www.maisondudragonbrussels.be/", "name": "Maison du Dragon", "rooms": "98", "stars": "4", "tourism": "hotel"}}, {"type": "relation", "id": 3245216, "members": [{"type": "way", "ref": 240537565, "role": "outer"}, {"type": "way", "ref": 240537566, "role": "inner"}], "tags": {"brand": "DoubleTree", "brand:wikidata": "Q2504643", "brand:wikipedia": "en:Hilton Hotels & Resorts", "building": "yes", "contact:email": "brudt_res@hilton.com", "contact:facebook": "https://www.facebook.com/doubletreebrusselscity/", "contact:phone": "+32 2 203 62 00", "contact:website": "https://www.hilton.com/en/hotels/brudtdi-doubletree-brussels-city", "name": "DoubleTree by Hilton Brussels City", "official_name": "DoubleTree by Hilton", "operator": "Hilton", "ref:UrbIS": "8205755", "rooms": "354", "stars": "4", "tourism": "hotel", "type": "multipolygon", "wikidata": "Q16509949", "wikimedia_commons": "Category:DoubleTree by Hilton Brussels City", "wikipedia": "fr:DoubleTree by Hilton Brussels City"}}]}