{"version": 0.6, "generator": "Overpass API 0.7.62.1 084b4234", "osm3s": {"timestamp_osm_base": "2024-11-20T00:53:28Z", "copyright": "The data included in this document is from www.openstreetmap.org. The data is made available under ODbL."}, "elements": [{"type": "node", "id": 4281797006, "lat": 51.1881516, "lon": 4.4844552, "tags": {"check_date": "2024-07-26", "information": "map", "map_size": "region", "name": "Fietsknooppuntennetwerk Antwerpen", "tourism": "information"}}, {"type": "node", "id": 4281797007, "lat": 51.1881313, "lon": 4.484362, "tags": {"board_type": "history", "check_date": "2024-07-26", "description": "tekst;kaart", "information": "board", "name": "Fortengordels rond Antwerpen: een nationaal reduit", "operator": "Provincie Antwerpen", "tourism": "information"}}, {"type": "node", "id": 4281797008, "lat": 51.1934286, "lon": 4.4821727, "tags": {"information": "map", "map_size": "region", "name": "Wandelgebied Landschapspark Zuidrand", "tourism": "information"}}, {"type": "node", "id": 4281797009, "lat": 51.1930999, "lon": 4.482553, "tags": {"board_type": "nature", "information": "board", "name": "Welkom aan de Koude Beek", "tourism": "information"}}, {"type": "node", "id": 4281797010, "lat": 51.1885565, "lon": 4.4855019, "tags": {"board_type": "nature", "information": "board", "name": "Welkom in het landelijk gebied van Borsbeek", "tourism": "information"}}, {"type": "node", "id": 4281797185, "lat": 51.1932274, "lon": 4.4826599, "tags": {"artist_name": "Marc Tritsmans", "artwork_type": "poem", "tourism": "artwork"}}, {"type": "node", "id": 4283952080, "lat": 51.1883921, "lon": 4.4811656, "tags": {"board_type": "nature", "information": "board", "name": "Fort van Borsbeek verdedigt de natuur", "operator": "Natuurpunt", "tourism": "information"}}, {"type": "node", "id": 4283952082, "lat": 51.1846705, "lon": 4.4823771, "tags": {"board_type": "nature", "check_date": "2024-07-26", "information": "board", "name": "Welkom aan de Fortgracht", "operator": "Natuurpunt", "tourism": "information"}}, {"type": "node", "id": 4283952083, "lat": 51.1880535, "lon": 4.4757569, "tags": {"board_type": "nature", "description": "kaart;tekst", "information": "board", "name": "Welkom aan de Fortloop", "tourism": "information"}}, {"type": "node", "id": 4285889984, "lat": 51.1873524, "lon": 4.4780791}, {"type": "node", "id": 4285889985, "lat": 51.1873628, "lon": 4.478131}, {"type": "node", "id": 4285889987, "lat": 51.1873889, "lon": 4.4780647, "tags": {"tourism": "viewpoint"}}, {"type": "node", "id": 4285890590, "lat": 51.1874052, "lon": 4.4781365}, {"type": "node", "id": 4285890592, "lat": 51.187422, "lon": 4.4780263}, {"type": "node", "id": 4285890593, "lat": 51.1874301, "lon": 4.4780893}, {"type": "node", "id": 4287794830, "lat": 51.1827729, "lon": 4.489273, "tags": {"board_type": "nature", "information": "board", "name": "Welkom op domein Nosegoed", "tourism": "information"}}, {"type": "node", "id": 4290529552, "lat": 51.1935341, "lon": 4.4822921, "tags": {"information": "map", "map_size": "region", "name": "Loop omloop", "tourism": "information"}}, {"type": "node", "id": 9502280798, "lat": 51.1891229, "lon": 4.4923125, "tags": {"description": "Geboortenamen", "information": "board", "tourism": "information"}}, {"type": "node", "id": 9502280799, "lat": 51.1893118, "lon": 4.4921938, "tags": {"description": "Wij helpen de natuur een handje", "information": "board", "tourism": "information"}}, {"type": "way", "id": 429447240, "nodes": [4285890592, 4285890593, 4285890590, 4285889985, 4285889984, 4285890592], "tags": {"tourism": "picnic_site"}}]}