{"version": 0.6, "generator": "Overpass API 0.7.62.1 084b4234", "osm3s": {"timestamp_osm_base": "2024-11-20T01:02:23Z", "copyright": "The data included in this document is from www.openstreetmap.org. The data is made available under ODbL."}, "elements": [{"type": "node", "id": 2612964720, "lat": 16.9282418, "lon": -88.3874387, "tags": {"name": "Bocawina Adventures & Eco-Tours", "note": "Offers the following activities: Zipline; Waterfall Rappelling; Hiking; Birdwatching; Horseback riding in the jungle; Mayan Ruin Tours; Cultural and Wildlife tours; Cave tubing; Snorkeling; Fishing; Diving;", "operator": "Bocawina Adventures & Eco-Tours", "phone": "664-5554", "tourism": "attraction", "website": "https://www.bocawinaadventures.com/"}}, {"type": "node", "id": 2612966521, "lat": 16.9273146, "lon": -88.3885979, "tags": {"name": "Bocawina Zipline", "note": "The longest zipline course in Central America", "operator": "Bocawina Adventures & Eco-Tours", "tourism": "attraction", "website": "https://www.bocawinaadventures.com/"}}, {"type": "node", "id": 3758384298, "lat": 17.0082328, "lon": -88.4806203, "tags": {"name": "Lost World Jungle Lodge", "source": "KG Ground Survey 2015", "tourism": "hotel"}}, {"type": "node", "id": 4491410755, "lat": 16.9940685, "lon": -88.3607768, "tags": {"name": "Davis Falls Inn", "old_name": "Macaroni Hill View Hotel", "tourism": "hotel"}}, {"type": "node", "id": 4852802821, "lat": 17.1760784, "lon": -88.393772, "tags": {"tourism": "attraction"}}, {"type": "node", "id": 5471906946, "lat": 17.004671, "lon": -88.4381319}, {"type": "node", "id": 5471906947, "lat": 17.0046965, "lon": -88.4380976}, {"type": "node", "id": 5471906948, "lat": 17.0046612, "lon": -88.4380689}, {"type": "node", "id": 5471906949, "lat": 17.0046357, "lon": -88.4381032}, {"type": "node", "id": 6000817186, "lat": 17.0826987, "lon": -88.3403422, "tags": {"addr:housenumber": "29.5 Miles", "addr:street": "Coastal Road", "name": "Legacy Camp", "tourism": "camp_site"}}, {"type": "node", "id": 6000835285, "lat": 17.0022224, "lon": -88.3050943, "tags": {"name": "The Crossings", "tourism": "camp_site"}}, {"type": "node", "id": 7010907412, "lat": 16.9625707, "lon": -88.2407614, "tags": {"name": "Gulisi Garifuna Museum", "tourism": "museum", "wikidata": "Q88375488"}}, {"type": "node", "id": 8218114840, "lat": 16.9874317, "lon": -88.3002793}, {"type": "node", "id": 8218114841, "lat": 16.9875788, "lon": -88.3001069}, {"type": "node", "id": 8218114842, "lat": 16.9874827, "lon": -88.3000172}, {"type": "node", "id": 8218114843, "lat": 16.9873356, "lon": -88.3001896}, {"type": "node", "id": 8986923497, "lat": 17.008731, "lon": -88.4370656, "tags": {"tourism": "viewpoint"}}, {"type": "node", "id": 10704735616, "lat": 16.9338784, "lon": -88.3847763, "tags": {"name": "Maintzunun mayan ruin (mound)", "tourism": "attraction"}}, {"type": "node", "id": 11118100138, "lat": 17.0117086, "lon": -88.4421833, "tags": {"name": "Jaguar Trail Viewpoint", "tourism": "viewpoint", "tower:type": "observation"}}, {"type": "way", "id": 568808040, "nodes": [5471906946, 5471906947, 5471906948, 5471906949, 5471906946], "tags": {"building": "yes", "information": "office", "name": "Billy Barquedier National Park Visitor Center", "tourism": "information"}}, {"type": "way", "id": 883635525, "nodes": [8218114840, 8218114841, 8218114842, 8218114843, 8218114840], "tags": {"building": "yes", "name": "Jungle Huts Hotel", "tourism": "hotel"}}]}