{"version": 0.6, "generator": "Overpass API 0.7.62.1 084b4234", "osm3s": {"timestamp_osm_base": "2024-11-20T00:55:30Z", "copyright": "The data included in this document is from www.openstreetmap.org. The data is made available under ODbL."}, "elements": [{"type": "node", "id": 470872451, "lat": 51.3255998, "lon": 5.0894686, "tags": {"addr:city": "Arendonk", "addr:postcode": "2370", "addr:street": "Molenwiel", "name": "Arendonks Heem- en Sigarenmakersmuseum", "toilets:wheelchair": "yes", "tourism": "museum", "website": "https://www.heemkringarendonk.be/", "wheelchair": "yes"}}, {"type": "node", "id": 2215217174, "lat": 51.368108, "lon": 5.0747759, "tags": {"information": "map", "map_size": "site", "map_type": "scheme", "tourism": "information"}}, {"type": "node", "id": 3739970400, "lat": 51.3206066, "lon": 5.0867812, "tags": {"information": "office", "name": "Toerisme Arendonk", "tourism": "information"}}, {"type": "node", "id": 4287974378, "lat": 51.3257947, "lon": 5.1106021}, {"type": "node", "id": 4287974379, "lat": 51.3257784, "lon": 5.1106872}, {"type": "node", "id": 4287974380, "lat": 51.3257241, "lon": 5.1106605}, {"type": "node", "id": 4287974381, "lat": 51.3257404, "lon": 5.1105754}, {"type": "node", "id": 4360532595, "lat": 51.3207089, "lon": 5.0874333, "tags": {"artist_name": "Jan Van Eyck", "artwork_type": "painting", "tourism": "artwork", "wikimedia_commons": "File:We_Are_Arendonk_spandoek.jpg"}}, {"type": "node", "id": 4361905022, "lat": 51.3255563, "lon": 5.0896821, "tags": {"artist_name": "Wil Droog", "artwork_type": "statue", "image": "https://commons.wikimedia.org/wiki/File:Wil_Droog,_Nen_Aorendoenkse_Telouwerele%27er.jpg", "name": "Nen Aorendoenkse Telouwerele'er", "tourism": "artwork", "wheelchair": "yes"}}, {"type": "node", "id": 4361905024, "lat": 51.3266649, "lon": 5.0939281, "tags": {"artwork_type": "bust", "image": "https://commons.wikimedia.org/wiki/File:Buste_Rik_Van_Steenbergen,_Wampenberg,_Arendonk.jpg", "name": "Rik Van Steenbergen", "tourism": "artwork"}}, {"type": "node", "id": 4361905025, "lat": 51.3266931, "lon": 5.0938713, "tags": {"artist_name": "Willie Verhegghe", "artwork_type": "poem", "name": "Rik Van Steenbergen", "tourism": "artwork"}}, {"type": "node", "id": 4361905026, "lat": 51.3254278, "lon": 5.0908769, "tags": {"board_type": "history", "information": "board", "name": "Toremensmolen", "tourism": "information"}}, {"type": "node", "id": 4361905058, "lat": 51.324465, "lon": 5.0946836, "tags": {"artwork_type": "sculpture", "image": "http://commons.wikimedia.org/wiki/File:Kunst_in_Arendonk_02.jpg", "tourism": "artwork"}}, {"type": "node", "id": 4361905063, "lat": 51.3245388, "lon": 5.0949328, "tags": {"artwork_type": "sculpture", "image": "http://commons.wikimedia.org/wiki/File:Kunst_in_Arendonk_01.jpg", "tourism": "artwork"}}, {"type": "node", "id": 4361905070, "lat": 51.3247537, "lon": 5.0941382, "tags": {"artwork_type": "sculpture", "image": "http://commons.wikimedia.org/wiki/File:Kunst_in_Arendonk_04.jpg", "tourism": "artwork"}}, {"type": "node", "id": 4361905078, "lat": 51.3248922, "lon": 5.0946531, "tags": {"artwork_type": "sculpture", "image": "http://commons.wikimedia.org/wiki/File:Kunst_in_Arendonk_03.jpg", "tourism": "artwork"}}, {"type": "node", "id": 5372411300, "lat": 51.3136944, "lon": 5.0686019, "tags": {"artwork_type": "sculpture", "denomination": "roman_catholic", "historic": "wayside_shrine", "image": "https://commons.wikimedia.org/wiki/File:Onze-Lieve-Vrouw_beeld_in_gevel_Akkerstraat_33,_Arendonk.jpg", "indoor": "no", "name": "Onze-Lieve-Vrouw", "religion": "christian", "tourism": "artwork"}}, {"type": "node", "id": 5765060137, "lat": 51.3690531, "lon": 5.0836623}, {"type": "node", "id": 5765060138, "lat": 51.3693312, "lon": 5.0841956}, {"type": "node", "id": 5765060139, "lat": 51.3690172, "lon": 5.0844289}, {"type": "node", "id": 5765060140, "lat": 51.3688388, "lon": 5.0839162}, {"type": "node", "id": 6796248316, "lat": 51.3076243, "lon": 5.0746151, "tags": {"name": "Kamphuis Broekkant", "tourism": "hostel"}}, {"type": "node", "id": 7864457381, "lat": 51.3727179, "lon": 5.1001201, "tags": {"board_type": "nature", "information": "board", "name": "Welkom in Hoge Vijvers", "tourism": "information"}}, {"type": "node", "id": 7864678308, "lat": 51.3613509, "lon": 5.116089, "tags": {"name": "Welkom in Hoge Vijvers", "tourism": "information"}}, {"type": "node", "id": 7864747329, "lat": 51.3519705, "lon": 5.1018746, "tags": {"name": "Welkom in Hoge Vijvers", "tourism": "information"}}, {"type": "node", "id": 7865141287, "lat": 51.3631785, "lon": 5.0785291, "tags": {"name": "De Nachtzwaluw", "tourism": "chalet"}}, {"type": "node", "id": 8870296885, "lat": 51.3281749, "lon": 5.0807202, "tags": {"information": "map", "mtb": "yes", "tourism": "information"}}, {"type": "node", "id": 8870391119, "lat": 51.3155826, "lon": 5.1341521, "tags": {"information": "map", "mtb": "yes", "tourism": "information"}}, {"type": "node", "id": 9084655754, "lat": 51.3696095, "lon": 5.0795406, "tags": {"information": "map", "mtb": "yes", "tourism": "information"}}, {"type": "node", "id": 9115176039, "lat": 51.373608, "lon": 5.0918291, "tags": {"tourism": "viewpoint"}}, {"type": "node", "id": 9918537712, "lat": 51.3633523, "lon": 5.0764419, "tags": {"direction": "170", "image": "https://i.imgur.com/RgpnUk7.jpg", "information": "board", "mapillary": "1711589999199757", "name": "Welkom in Hoge Vijvers", "operator": "Agentchap Natuur & Bos", "tourism": "information"}}, {"type": "node", "id": 10172020129, "lat": 51.3225498, "lon": 5.0862097, "tags": {"capacity": "10", "fee": "no", "internet_access": "no", "name": "Camperplaats Zwembad Arendonk", "permanent_camping": "no", "sanitary_dump_station": "no", "tourism": "caravan_site"}}, {"type": "node", "id": 10293737350, "lat": 51.3688236, "lon": 5.074314, "tags": {"information": "map", "running": "yes", "tourism": "information"}}, {"type": "way", "id": 429634876, "nodes": [4287974378, 4287974379, 4287974380, 4287974381, 4287974378], "tags": {"access": "yes", "building": "yes", "elevator": "no", "fee": "no", "height": "12 m", "man_made": "tower", "noname": "yes", "tourism": "viewpoint", "tower:type": "observation"}}, {"type": "way", "id": 608518368, "nodes": [5765060140, 5765060139, 5765060138, 5765060137, 5765060140], "tags": {"backcountry": "yes", "bicycle": "yes", "camp_site": "basic", "capacity": "10", "capacity:persons": "10", "capacity:tents": "3", "caravans": "no", "description": "minimalistic bivouac site", "description:nl": "site voor paalkamperen", "drinking_water": "no", "fee": "no", "image": "http://www.bivakzone.be/images/hogevijvers/arendonkplatform.jpg", "image:1": "http://www.bivakzone.be/images/hogevijvers/arendonk3.jpg", "maxstay": "1 night", "maxtents": "3", "motor_vehicle": "no", "name": "Hoge Vijvers - Arendonk", "openfire": "yes", "opening_hours": "24/7", "operator": "Flemish Agency for Nature and Forests", "operator:wikidata": "Q2556513", "reservation": "required", "source:nl": "http://www.bivakzone.be/hogevijvers.html", "surface": "grass", "tents": "yes", "tourism": "camp_site", "website": "https://www.bivakzone.be/hogevijvers.html"}}]}